[{"business_id": "101", "name": "LES TESTA", "address": "12322   Boulevard Rodolphe-Forget ", "city": "Montr\u00e9al", "state": "Qu\u00e9bec, Canada", "type": "Distributrice automatique", "statut": "Ouvert", "date_statut": "20031123", "latitude": "45.350661", "longitude": "-73.580261", "x": "228544.13", "y": "5056754.99"}, {"business_id": "102", "name": "LES TESTE", "address": "12322   Boulevard Rodolphe-Forget ", "city": "Montr\u00e9al", "state": "Qu\u00e9bec, Canada", "type": "Distributrice automatique", "statut": "Ouvert", "date_statut": "20031123", "latitude": "45.350661", "longitude": "-73.580261", "x": "228544.13", "y": "5056754.99"}, {"business_id": "127", "name": "LES ENTREPRISES ALJO", "address": "12515   Boulevard Rodolphe-Forget ", "city": "Montr\u00e9al", "state": "Qu\u00e9bec, Canada", "type": "Distributrice automatique", "statut": "Ouvert", "date_statut": "20031123", "latitude": "45.650661", "longitude": "-73.580264", "x": "298544.13", "y": "5056754.99"}, {"business_id": "135", "name": "PROVI-TOT", "address": "9128   Boulevard Perras ", "city": "Montr\u00e9al", "state": "Qu\u00e9bec, Canada", "type": "\u00c9picerie avec pr\u00e9paration", "statut": "Ferm\u00e9 changement d'exploitant", "date_statut": "20090821", "latitude": "45.650352", "longitude": "-73.577726", "x": "298741.88", "y": "5056720.54"}, {"business_id": "138", "name": "LE PETIT TABLIER", "address": "690   Rue Sherbrooke Ouest", "city": "Montr\u00e9al", "state": "Qu\u00e9bec, Canada", "type": "Restaurant", "statut": "Ferm\u00e9 changement d'exploitant", "date_statut": "20090306", "latitude": "45.504673", "longitude": "-73.573766", "x": "299035.65", "y": "5040530.65"}, {"business_id": "140", "name": "RESTO-PUB MARCO POLO", "address": "7985   Avenue Marco-Polo ", "city": "Montr\u00e9al", "state": "Qu\u00e9bec, Canada", "type": "Brasserie", "statut": "Ferm\u00e9", "date_statut": "20230914", "latitude": "45.62598", "longitude": "-73.583592", "x": "298281.88", "y": "5054012.39"}, {"business_id": "146", "name": "BISTRO OLA KALA", "address": "522   Rue Jarry Ouest", "city": "Montr\u00e9al", "state": "Qu\u00e9bec, Canada", "type": "Bar salon, taverne", "statut": "Ferm\u00e9 changement d'exploitant", "date_statut": "20120921", "latitude": "45.531975", "longitude": "-73.635054", "x": "294251.47", "y": "5043570.93"}, {"business_id": "148", "name": "MM MUFFINS", "address": "1000  R-6 Rue De La Gaucheti\u00e8re Ouest", "city": "Montr\u00e9al", "state": "Qu\u00e9bec, Canada", "type": "Restaurant service rapide", "statut": "Ferm\u00e9 changement d'exploitant", "date_statut": "20121219", "latitude": "45.498531", "longitude": "-73.566914", "x": "299570.54", "y": "5039847.63"}, {"business_id": "149", "name": "ALIMENTATION ERIC DA PONTE", "address": "8115   Boulevard Maurice-Duplessis ", "city": "Montr\u00e9al", "state": "Qu\u00e9bec, Canada", "type": "Supermarch\u00e9", "statut": "Ferm\u00e9", "date_statut": "20100118", "latitude": "45.63383", "longitude": "-73.586499", "x": "298056.08", "y": "5054885.06"}, {"business_id": "150", "name": "PATES & PIZZA MEDZOO", "address": "845  G206 Rue Sainte-Catherine Est", "city": "Montr\u00e9al", "state": "Qu\u00e9bec, Canada", "type": "Restaurant service rapide", "statut": "Ferm\u00e9", "date_statut": "20080912", "latitude": "45.516058", "longitude": "-73.558378", "x": "300239.05", "y": "5041794.89"}, {"business_id": "151", "name": "CABANE HABILE ENR.", "address": "8069   Avenue Andr\u00e9-Amp\u00e8re ", "city": "Montr\u00e9al", "state": "Qu\u00e9bec, Canada", "type": "Garderie", "statut": "Ouvert", "date_statut": "19930713", "latitude": "45.635397", "longitude": "-73.591749", "x": "297646.97", "y": "5055059.65"}, {"business_id": "154", "name": "BEURRE NOISETTE", "address": "4354   Avenue Christophe-Colomb ", "city": "Montr\u00e9al", "state": "Qu\u00e9bec, Canada", "type": "Restaurant", "statut": "Ferm\u00e9 changement d'exploitant", "date_statut": "20120420", "latitude": "45.527004", "longitude": "-73.57697", "x": "298787.65", "y": "5043012.5"}, {"business_id": "155", "name": "VILLAGE PLACE FRONTENAC", "address": "2600  105 Rue Ontario Est", "city": "Montr\u00e9al", "state": "Qu\u00e9bec, Canada", "type": "Magasin \u00e0 rayons", "statut": "Ferm\u00e9 changement d'exploitant", "date_statut": "20160518", "latitude": "45.533752", "longitude": "-73.552052", "x": "300734.54", "y": "5043760.83"}, {"business_id": "156", "name": "BILLARD FATS ENR.", "address": "1635   Rue Sainte-Catherine Ouest", "city": "Montr\u00e9al", "state": "Qu\u00e9bec, Canada", "type": "Bar salon, taverne", "statut": "Ouvert", "date_statut": "20100603", "latitude": "45.494541", "longitude": "-73.578416", "x": "298671.19", "y": "5039404.98"}, {"business_id": "159", "name": "DOLLARIUM", "address": "6540   Boulevard Monk ", "city": "Montr\u00e9al", "state": "Qu\u00e9bec, Canada", "type": "Magasin \u00e0 rayons", "statut": "Ferm\u00e9 changement d'exploitant", "date_statut": "20150928", "latitude": "45.453388", "longitude": "-73.594099", "x": "297440.09", "y": "5034833.02"}, {"business_id": "500", "name": "RESIDENCE MARIE-ROSE", "address": "8205   Rue Arthur-Buies ", "city": "Montr\u00e9al", "state": "Qu\u00e9bec, Canada", "type": "Centre d'accueil", "statut": "Ferm\u00e9", "date_statut": "20120704", "latitude": "45.593428", "longitude": "-73.513934", "x": "303712.87", "y": "5050391.57"}, {"business_id": "501", "name": "C.P.E. BILBO  (LA PETITE OURSE)", "address": "2796   Avenue Lebrun ", "city": "Montr\u00e9al", "state": "Qu\u00e9bec, Canada", "type": "Garderie", "statut": "Ferm\u00e9", "date_statut": "20210504", "latitude": "45.600529", "longitude": "-73.52494", "x": "302854.42", "y": "5051180.94"}, {"business_id": "502", "name": "C.P.E. DU DOLMEN", "address": "585   Rue De Saint-Just ", "city": "Montr\u00e9al", "state": "Qu\u00e9bec, Canada", "type": "Garderie", "statut": "Ouvert", "date_statut": "19930407", "latitude": "45.587136", "longitude": "-73.509212", "x": "304081.16", "y": "5049692.22"}, {"business_id": "505", "name": "DEPAN ESCOMPTE COUCHE-TARD #305", "address": "8550   Rue Hochelaga ", "city": "Montr\u00e9al", "state": "Qu\u00e9bec, Canada", "type": "\u00c9picerie", "statut": "Ouvert", "date_statut": "19930210", "latitude": "45.599466", "longitude": "-73.521039", "x": "303158.66", "y": "5051062.64"}, {"business_id": "506", "name": "DEPANNEUR L. HENRY", "address": "9090   Avenue Pierre-De Coubertin ", "city": "Montr\u00e9al", "state": "Qu\u00e9bec, Canada", "type": "\u00c9picerie", "statut": "Ferm\u00e9 changement d'exploitant", "date_statut": "20100215", "latitude": "45.606324", "longitude": "-73.519437", "x": "303283.84", "y": "5051824.82"}, {"business_id": "507", "name": "DEPANNEUR KARIANNE", "address": "9581   Avenue Pierre-De Coubertin ", "city": "Montr\u00e9al", "state": "Qu\u00e9bec, Canada", "type": "\u00c9picerie", "statut": "Ferm\u00e9", "date_statut": "20140117", "latitude": "45.610816", "longitude": "-73.51725", "x": "303454.56", "y": "5052323.98"}]